{
    "msg": "success",
    "code": 0,
    "FishInfoEntity": [
      {
        "id": 1,
        "name": "农家好欢乐钓鱼基地",
        "latitude": "28.050262",
        "longitude": "113.076203",
        "del": 1,
        "fid": 1
      },
      {
        "id": 2,
        "name": "跳马钓鱼民宿",
        "latitude": "28.050356",
        "longitude": "113.077179",
        "del": 1,
        "fid": 2
      },
      {
        "id": 3,
        "name": "休闲娱乐垂钓乐园",
        "latitude": "28.052364",
        "longitude": "113.074518",
        "del": 1,
        "fid": 3
      },
      {
        "id": 4,
        "name": "天华水库",
        "latitude": "28.050195",
        "longitude": "113.080237",
        "del": 1,
        "fid": 4
      },
      {
        "id": 5,
        "name": "红哥钓场",
        "latitude": "28.051833",
        "longitude": "113.079228",
        "del": 1,
        "fid": 5
      }
    ]
  }